,City,Lat,Lng,Max Temp (F),Humidity,Cloudiness,Windspeed (mph),Country,Date
0,Buraidah,26.33,43.98,93.2,38,20,3.36,SA,1595894004
1,Dunedin,-45.87,170.5,48.0,76,100,5.01,NZ,1595894514
2,Busselton,-33.65,115.33,48.0,98,8,8.72,AU,1595894515
3,Adrar,20.5,-10.07,95.31,23,30,14.29,MR,1595894515
4,Mogadishu,2.04,45.34,77.41,85,82,22.1,SO,1595894328
5,Taltal,-25.4,-70.48,57.6,72,21,3.0,CL,1595894515
6,Anadyr,64.75,177.48,69.8,64,20,11.18,RU,1595894515
7,Ugoofaaru,5.67,73.0,81.34,79,76,12.28,MV,1595894515
8,Cape Town,-33.93,18.42,57.99,100,0,2.24,ZA,1595894516
9,Lebu,-37.62,-73.65,45.86,73,7,12.97,CL,1595894516
10,Zhanjiang,21.28,110.34,85.12,78,51,8.99,CN,1595894516
11,Castro,-24.79,-50.01,60.12,74,100,3.67,BR,1595894516
12,Turbat,26.0,63.04,84.54,69,16,7.87,PK,1595894516
13,Khatanga,71.97,102.5,50.61,61,0,6.51,RU,1595894516
14,Longyearbyen,78.22,15.64,64.4,55,10,9.17,SJ,1595894414
15,Blagoyevo,63.37,47.92,58.26,87,87,3.02,RU,1595894517
16,Mar del Plata,-38.0,-57.56,44.01,80,40,9.17,AR,1595894517
17,Yeniseysk,58.45,92.17,57.83,75,0,1.01,RU,1595894517
18,Clyde River,70.47,-68.59,41.0,100,90,13.87,CA,1595894517
19,Inhambane,-23.86,35.38,64.17,77,21,10.94,MZ,1595894517
20,Esperance,-33.87,121.9,50.0,100,58,9.17,AU,1595894413
21,Ushuaia,-54.8,-68.3,33.8,80,40,20.8,AR,1595894461
22,Coyhaique,-45.58,-72.07,41.0,60,20,3.36,CL,1595894518
23,Coquimbo,-29.95,-71.34,55.4,82,0,2.24,CL,1595894518
24,Barrow,71.29,-156.79,39.2,80,90,25.28,US,1595894518
25,Chui,-33.7,-53.46,49.35,83,57,6.76,UY,1595894518
26,Te Anau,-45.42,167.72,45.99,75,100,0.31,NZ,1595894519
27,Upernavik,72.79,-56.15,44.55,88,6,4.45,GL,1595894519
28,Jamestown,42.1,-79.24,78.01,88,1,10.29,US,1595894305
29,Silca,14.83,-86.53,73.65,87,94,2.01,HN,1595894519
30,Albany,42.6,-73.97,91.0,51,12,4.0,US,1595894519
31,Luena,-11.78,19.92,50.43,53,0,3.71,AO,1595894519
32,Severnoye,56.35,78.36,51.46,93,1,2.98,RU,1595894519
33,Mataura,-46.19,168.86,43.0,87,100,1.99,NZ,1595894520
34,Quatre Cocos,-20.21,57.76,66.2,88,40,2.24,MU,1595894520
35,Saint-Pierre,-21.34,55.48,69.8,83,99,5.82,RE,1595894520
36,Pacific Grove,36.62,-121.92,73.99,68,1,12.75,US,1595894520
37,Port Augusta,-32.5,137.77,42.01,93,26,5.82,AU,1595894521
38,Ahipara,-35.17,173.17,59.13,68,97,10.54,NZ,1595894521
39,Eydhafushi,5.1,73.07,81.27,79,90,12.28,MV,1595894521
40,Santa Lucía,27.91,-15.54,73.4,73,75,26.4,ES,1595894521
41,Robertsport,6.75,-11.37,76.26,81,89,12.77,LR,1595894521
42,Tuatapere,-46.13,167.68,43.0,87,100,1.99,NZ,1595894522
43,Hilo,19.73,-155.09,84.2,62,75,9.17,US,1595894522
44,Hambantota,6.12,81.12,80.1,79,100,14.61,LK,1595894522
45,Faanui,-16.48,-151.75,78.93,79,100,14.12,PF,1595894522
46,Qaanaaq,77.48,-69.36,45.63,59,63,3.49,GL,1595894522
47,Ribeira Grande,38.52,-28.7,74.16,88,4,4.36,PT,1595894522
48,Thompson,55.74,-97.86,62.6,72,75,12.75,CA,1595894503
49,Xingyi,24.19,102.82,62.56,81,0,1.32,CN,1595894523
50,Puerto Ayora,-0.74,-90.35,71.6,78,40,16.11,EC,1595894523
51,São Filipe,14.9,-24.5,75.76,76,89,6.78,CV,1595894523
52,Puerto Carreño,6.19,-67.49,80.6,74,40,2.86,CO,1595894413
53,Yellowknife,62.46,-114.35,64.99,88,75,14.99,CA,1595894524
54,Sioux Lookout,50.1,-91.92,68.0,68,75,10.29,CA,1595894447
55,Hamilton,39.18,-84.53,82.99,83,40,5.82,US,1595894280
56,Skibbereen,51.55,-9.27,55.4,82,75,8.05,IE,1595894524
57,Hermanus,-34.42,19.23,44.01,91,0,5.84,ZA,1595894524
58,Saskylakh,71.92,114.08,50.49,67,43,13.04,RU,1595894524
59,Melioratorov,57.21,65.61,53.6,93,11,6.71,RU,1595894525
60,Gombong,-7.61,109.51,74.17,84,75,5.1,ID,1595894525
61,Nikolskoye,59.7,30.79,60.01,82,19,6.71,RU,1595894525
62,Geraldton,-28.77,114.6,59.0,100,90,10.29,AU,1595894450
63,Caraballeda,10.61,-66.85,73.0,88,29,3.69,VE,1595894525
64,Touros,-5.2,-35.46,73.4,88,40,4.7,BR,1595894525
65,Leer,8.3,30.14,71.02,95,81,3.74,SS,1595894526
66,Huarmey,-10.07,-78.15,60.67,84,23,8.61,PE,1595894526
67,Margate,51.38,1.39,63.0,90,83,1.99,GB,1595894526
68,Quetta,30.2,67.01,70.93,62,0,1.95,PK,1595894471
69,Kruisfontein,-34.0,24.73,49.1,66,0,5.91,ZA,1595894526
70,Punta Arenas,-53.15,-70.92,35.6,55,40,12.75,CL,1595894341
71,Grand Gaube,-20.01,57.66,66.0,82,2,3.0,MU,1595894526
72,Hithadhoo,-0.6,73.08,81.55,79,100,9.78,MV,1595894441
73,Portland,45.52,-122.68,100.0,19,40,8.05,US,1595894273
74,Severo-Kuril'sk,50.68,156.12,54.41,85,94,16.75,RU,1595894527
75,Bluff,-46.6,168.33,43.0,87,100,1.99,NZ,1595894527
76,Itarema,-2.92,-39.92,77.72,77,10,13.98,BR,1595894528
77,Tolaga Bay,-38.37,178.3,55.76,56,11,2.64,NZ,1595894528
78,Port Alfred,-33.59,26.89,54.52,80,0,9.98,ZA,1595894525
79,Carnarvon,-24.87,113.63,51.8,93,0,8.05,AU,1595894410
80,Kapaa,22.08,-159.32,82.4,78,40,23.04,US,1595894528
81,Pangnirtung,66.15,-65.71,60.42,45,95,10.54,CA,1595894528
82,Katsuura,35.13,140.3,84.0,94,75,16.11,JP,1595894528
83,Talaya,61.38,152.75,78.71,28,29,10.98,RU,1595894529
84,New Norfolk,-42.78,147.06,48.0,93,44,2.33,AU,1595894529
85,Alice Springs,-23.7,133.88,50.0,53,0,4.7,AU,1595894381
86,Yar-Sale,66.83,70.83,48.94,72,100,13.87,RU,1595894529
87,Iqaluit,63.75,-68.51,55.4,76,75,2.24,CA,1595894529
88,Shiyan,32.65,110.78,77.31,86,93,2.59,CN,1595894529
89,Sandwick,60.0,-1.25,55.4,93,100,8.05,GB,1595894530
90,Bengkulu,-3.8,102.27,74.48,79,77,4.05,ID,1595894530
91,Airai,-8.93,125.41,61.05,68,93,3.91,TL,1595894530
92,Labuhan,-6.88,112.21,75.85,78,44,12.5,ID,1595894530
93,Port Elizabeth,-33.92,25.57,50.0,76,0,5.82,ZA,1595894530
94,Chokurdakh,70.63,147.92,47.25,60,100,3.02,RU,1595894531
95,Anáhuac,27.23,-100.15,80.6,83,75,6.93,MX,1595894531
96,Pevek,69.7,170.31,35.98,84,0,10.51,RU,1595894531
97,Rantauprapat,2.1,99.83,73.04,91,95,1.48,ID,1595894255
98,Kumul,42.8,93.45,81.95,28,10,14.47,CN,1595894531
99,Rikitea,-23.12,-134.97,72.37,78,73,12.24,PF,1595894531
100,Divnoye,45.91,43.35,72.52,42,69,8.99,RU,1595894531
101,Canandaigua,42.87,-77.29,82.0,56,7,3.0,US,1595894365
102,George Town,5.41,100.34,80.6,94,20,1.12,MY,1595894529
103,Assiut,27.18,31.18,78.8,39,0,8.05,EG,1595894532
104,Ilek,51.53,53.38,58.69,90,0,6.87,RU,1595894532
105,Ghanzi,-21.57,21.78,47.43,51,0,10.56,BW,1595894532
106,Umm Kaddadah,13.6,26.69,85.44,53,26,15.79,SD,1595894533
107,Vaini,-21.2,-175.2,73.4,83,40,11.41,TO,1595894533
108,Tasiilaq,65.61,-37.64,42.8,87,99,6.93,GL,1595894533
109,Ariquemes,-9.91,-63.04,78.46,46,100,1.03,BR,1595894533
110,Atuona,-9.8,-139.03,79.84,69,1,25.48,PF,1595894533
111,Tikrit,34.61,43.68,97.75,14,0,7.34,IQ,1595894533
112,Provideniya,64.38,-173.3,51.8,93,90,8.95,RU,1595894534
113,Tiksi,71.69,128.87,39.2,87,100,15.84,RU,1595894534
114,Luleå,65.58,22.15,59.0,93,97,1.12,SE,1595894530
115,Ipixuna,-1.76,-48.8,82.4,61,0,4.7,BR,1595894534
116,Berlevåg,70.86,29.09,59.36,72,0,8.81,NO,1595894534
117,Adré,13.47,22.2,70.95,83,100,9.46,TD,1595894534
118,Avarua,-21.21,-159.78,71.6,83,81,6.93,CK,1595894411
119,Preobrazheniye,42.9,133.91,69.51,73,64,9.15,RU,1595894535
120,Port Blair,11.67,92.75,81.66,81,100,11.74,IN,1595894535
121,Nome,64.5,-165.41,51.8,87,90,17.22,US,1595894535
122,Mahébourg,-20.41,57.7,66.2,88,40,2.24,MU,1595894535
123,Hong Kong,22.29,114.16,86.0,79,54,4.0,HK,1595894356
124,Ulaanbaatar,47.91,106.88,55.4,87,20,2.24,MN,1595894273
125,Luoyang,34.68,112.45,76.19,82,30,4.25,CN,1595894536
126,Pisco,-13.7,-76.22,61.0,77,4,17.22,PE,1595894536
127,Misratah,32.38,15.09,76.62,72,0,3.27,LY,1595894536
128,Matucana,-11.85,-76.4,59.88,37,39,0.51,PE,1595894536
129,Saldanha,-33.01,17.94,46.4,65,0,2.24,ZA,1595894536
130,Tomatlán,19.93,-105.25,82.89,80,100,2.44,MX,1595894537
131,Torbay,47.67,-52.73,57.99,100,90,5.82,CA,1595894537
132,Marshall,34.38,-86.33,81.0,74,1,2.68,US,1595894537
133,Kulhudhuffushi,6.62,73.07,81.64,80,95,13.89,MV,1595894537
134,Orlik,52.52,99.83,55.33,65,0,0.25,RU,1595894537
135,La Libertad,-2.23,-80.9,69.8,83,40,11.41,EC,1595894537
136,Great Yarmouth,52.61,1.73,60.01,88,78,3.0,GB,1595894526
137,Acatlán,20.15,-98.45,62.62,85,99,6.24,MX,1595894538
138,Kuala Terengganu,5.33,103.14,77.0,94,20,2.24,MY,1595894538
139,Sovetskiy,61.36,63.58,49.03,77,49,3.78,RU,1595894538
140,Sola,-13.88,167.55,80.53,83,62,23.91,VU,1595894538
141,Bredasdorp,-34.53,20.04,41.0,93,0,1.12,ZA,1595894538
142,Ancud,-41.87,-73.82,41.0,93,50,4.7,CL,1595894539
143,Dingcheng,32.13,115.04,76.66,90,10,5.44,CN,1595894539
144,Sri Aman,1.24,111.46,77.0,94,100,1.01,MY,1595894539
145,Mukhen,48.1,136.1,79.68,69,13,2.28,RU,1595894539
146,São Domingos do Maranhão,-5.58,-44.39,75.54,46,46,3.83,BR,1595894539
147,Tucuruí,-3.77,-49.67,74.98,54,0,1.79,BR,1595894540
148,Evensk,61.95,159.23,54.97,84,97,7.92,RU,1595894540
149,Gold Coast,-28.0,153.43,64.4,45,54,11.41,AU,1595894400
150,Fairbanks,64.84,-147.72,59.0,87,90,8.05,US,1595894540
151,Niamey,13.51,2.11,75.2,94,98,4.7,NE,1595894540
152,Lompoc,34.64,-120.46,70.0,64,4,16.11,US,1595894307
153,Natal,-5.79,-35.21,73.4,88,40,9.17,BR,1595894326
154,Payakumbuh,-0.22,100.63,69.4,85,94,2.01,ID,1595894541
155,Haines Junction,60.75,-137.51,57.33,61,100,3.27,CA,1595894541
156,Bandarbeyla,9.49,50.81,79.74,70,0,21.59,SO,1595894541
157,Dikson,73.51,80.55,39.96,82,46,13.4,RU,1595894541
158,Muros,42.78,-9.06,70.0,86,22,3.0,ES,1595894541
159,Mitsamiouli,-11.38,43.28,74.1,75,100,10.85,KM,1595894542
160,Guerrero Negro,27.98,-114.06,73.24,68,8,21.3,MX,1595894542
161,Tornio,65.85,24.15,59.0,82,100,8.05,FI,1595894542
162,Butaritari,3.07,172.79,82.89,80,99,10.63,KI,1595894542
163,Paracuru,-3.41,-39.03,80.01,75,2,21.0,BR,1595894542
164,Gusinoye Ozero,51.11,106.26,64.9,68,6,6.24,RU,1595894542
165,Sicamous,50.83,-118.99,93.0,35,0,3.49,CA,1595894543
166,Arraial do Cabo,-22.97,-42.03,71.6,83,20,11.41,BR,1595894543
167,Hobart,-42.88,147.33,48.0,93,75,9.17,AU,1595894365
168,Northam,51.03,-4.22,59.0,90,11,13.0,GB,1595894543
169,East London,-33.02,27.91,57.02,75,9,12.37,ZA,1595894543
170,Mandalgovi,45.76,106.27,63.84,51,0,14.38,MN,1595894543
171,Tuktoyaktuk,69.45,-133.04,66.2,63,75,14.99,CA,1595894544
172,Lubango,-14.92,13.49,54.25,50,0,3.22,AO,1595894544
173,Ihosy,-22.4,46.12,58.03,83,46,9.13,MG,1595894544
174,Abu Samrah,35.3,37.18,79.18,45,26,4.05,SY,1595894544
175,Yumen,40.28,97.2,73.62,18,0,7.54,CN,1595894545
176,Narsaq,60.92,-46.05,51.8,81,75,5.82,GL,1595894545
177,Sault Ste. Marie,46.52,-84.33,71.6,64,1,13.87,CA,1595894322
178,Dauphin,51.15,-100.05,78.8,36,40,14.99,CA,1595894545
179,Yanam,16.73,82.22,80.56,82,62,3.02,IN,1595894545
180,Beringovskiy,63.05,179.32,69.1,54,0,7.23,RU,1595894545
181,Saravan,39.72,45.65,80.6,44,20,9.17,AM,1595894546
182,Mikuni,36.22,136.15,82.4,74,90,9.17,JP,1595894546
183,Progreso,21.28,-89.67,91.4,59,75,20.8,MX,1595894546
184,Ketchikan,55.34,-131.65,62.6,72,20,14.99,US,1595894546
185,Mastic Beach,40.77,-72.85,86.0,62,1,9.17,US,1595894547
186,Cherskiy,68.75,161.3,45.66,57,48,11.32,RU,1595894547
187,Kargasok,59.06,80.86,53.44,75,41,4.38,RU,1595894547
188,Seymchan,62.88,152.43,78.51,39,27,5.66,RU,1595894547
189,Bethel,41.37,-73.41,87.8,55,1,9.17,US,1595894547
190,San Quintín,30.48,-115.95,72.09,70,2,15.46,MX,1595894547
191,Leningradskiy,69.38,178.42,38.03,77,89,10.42,RU,1595894548
192,Norman Wells,65.28,-126.83,73.4,43,75,10.29,CA,1595894548
193,Sinnamary,5.38,-52.95,79.25,81,29,3.2,GF,1595894548
194,Miramar,25.99,-80.23,87.01,79,20,12.75,US,1595894548
195,Ustrzyki Dolne,49.43,22.59,59.0,93,14,8.01,PL,1595894548
196,Tyukhtet,56.54,89.3,56.37,90,0,1.68,RU,1595894548
197,Dingle,11.0,122.67,80.53,84,100,5.3,PH,1595894549
198,Ismailia,30.6,32.27,73.58,82,0,9.28,EG,1595894549
199,Hokitika,-42.72,170.97,53.76,61,100,6.17,NZ,1595894549
200,Ilulissat,69.22,-51.1,42.8,81,97,2.24,GL,1595894549
201,Alekseyevsk,57.84,108.35,64.76,79,100,1.77,RU,1595894550
202,Paamiut,61.99,-49.67,46.78,84,95,1.86,GL,1595894550
203,Krasnyy Yar,46.53,48.35,77.0,31,8,6.71,RU,1595894550
204,Rudnogorsk,57.26,103.75,61.7,85,39,4.16,RU,1595894550
205,Tashtagol,52.77,87.89,57.27,85,4,1.05,RU,1595894550
206,San Francisco,37.77,-122.42,70.0,64,20,21.92,US,1595894282
207,Roscommon,53.63,-8.18,52.0,96,34,8.99,IE,1595894550
208,Kroonstad,-27.65,27.23,42.49,65,0,5.06,ZA,1595894551
209,Kaitangata,-46.28,169.85,46.0,67,100,4.0,NZ,1595894551
210,Kavieng,-2.57,150.8,83.59,75,15,10.85,PG,1595894551
211,Kemin,42.78,75.69,64.62,40,51,6.46,KG,1595894551
212,Makakilo City,21.35,-158.09,87.8,52,75,12.75,US,1595894551
213,Sompeta,18.93,84.6,83.37,77,95,5.99,IN,1595894551
214,Malbork,54.04,19.03,64.99,100,100,3.69,PL,1595894346
215,Kirakira,-10.45,161.92,84.63,73,20,11.25,SB,1595894552
216,Ciudad Bolivar,8.12,-63.55,82.51,73,61,2.35,VE,1595894552
217,Rocha,-34.48,-54.33,46.49,74,60,8.3,UY,1595894552
218,Okha,53.57,142.95,65.35,78,43,5.95,RU,1595894552
219,Ende,-8.84,121.66,75.52,71,70,7.0,ID,1595894553
220,Turukhansk,65.82,87.98,52.61,63,80,18.68,RU,1595894553
221,Nevers,46.99,3.16,70.0,61,0,6.53,FR,1595894509
222,Mendi,-6.18,143.65,63.41,86,98,2.04,PG,1595894553
223,Chissamba,-12.17,17.33,51.19,51,0,2.37,AO,1595894553
224,Viedma,-40.81,-63.0,40.37,70,20,8.3,AR,1595894553
225,Uyuni,-20.46,-66.83,37.99,51,0,8.14,BO,1595894554
226,Tonekābon,36.82,50.87,78.8,88,40,2.62,IR,1595894554
227,Beloha,-25.17,45.05,57.42,90,0,3.36,MG,1595894554
228,Talnakh,69.49,88.4,55.4,54,26,4.47,RU,1595894554
229,Mount Isa,-20.73,139.5,60.8,31,0,8.05,AU,1595894417
230,Shetpe,44.17,52.12,71.85,27,1,12.37,KZ,1595894554
231,Yerbogachën,61.28,108.01,55.94,90,100,11.48,RU,1595894555
232,Yablonovo,50.85,37.36,64.4,55,61,6.71,RU,1595894555
233,Wanning,18.8,110.4,84.38,82,52,11.52,CN,1595894555
234,Bubaque,11.28,-15.83,80.1,83,100,19.73,GW,1595894555
235,Ixtapa,20.7,-105.2,84.2,79,90,4.7,MX,1595894555
236,Port Hardy,50.7,-127.42,68.0,72,20,13.87,CA,1595894555
237,Qom,34.64,50.88,83.98,19,16,3.29,IR,1595894555
238,Half Moon Bay,37.46,-122.43,75.99,82,90,6.93,US,1595894556
239,Tarakan,3.3,117.63,80.55,80,82,3.98,ID,1595894556
240,Tuy Hoa,13.08,109.3,80.6,80,52,5.68,VN,1595894515
241,Gizo Government Station,-8.1,156.84,83.26,73,26,3.29,SB,1595894556
242,Pedasí,7.53,-80.03,79.83,86,36,11.81,PA,1595894556
243,Abū Zabad,12.35,29.25,77.97,65,100,10.0,SD,1595894556
244,Auki,-8.77,160.7,84.58,71,49,1.39,SB,1595894557
245,Necochea,-38.55,-58.74,42.01,92,95,7.0,AR,1595894557
246,Srandakan,-7.94,110.25,75.6,81,46,8.61,ID,1595894557
247,Codrington,-38.27,141.97,50.5,84,26,2.68,AU,1595894557
248,Bambous Virieux,-20.34,57.76,66.2,88,40,2.24,MU,1595894557
249,Churapcha,62.0,132.43,67.66,76,100,4.59,RU,1595894557
250,Mizque,-17.94,-65.34,60.69,55,0,3.42,BO,1595894558
251,São João da Barra,-21.64,-41.05,72.1,78,0,15.28,BR,1595894494
252,Ulladulla,-35.35,150.47,57.2,100,75,28.86,AU,1595894559
253,Westport,41.14,-73.36,90.0,66,1,8.05,US,1595894339
254,Sar-e Pul,35.83,66.17,61.36,32,0,2.42,AF,1595894559
255,Klaksvík,62.23,-6.59,46.4,93,100,12.75,FO,1595894559
256,Ferrol,43.48,-8.24,66.2,93,90,1.12,ES,1595894559
257,Saint-Philippe,-21.36,55.77,69.8,83,95,5.82,RE,1595894559
258,Iza,48.22,23.33,63.0,95,0,2.57,UA,1595894560
259,Porto Empedocle,37.29,13.53,73.99,37,0,4.21,IT,1595894560
260,Biltine,14.53,20.92,84.36,57,100,11.05,TD,1595894560
261,Bathsheba,13.22,-59.52,82.4,78,40,19.46,BB,1595894560
262,Salinópolis,-0.61,-47.36,79.3,85,0,13.0,BR,1595894560
263,Ponta do Sol,32.67,-17.1,71.6,64,20,11.41,PT,1595894560
264,Saint Paul Harbor,57.79,-152.41,62.6,67,20,8.05,US,1595894290
265,Hervey Bay,-25.3,152.85,64.99,52,1,5.99,AU,1595894561
266,Fortuna,40.6,-124.16,69.01,67,3,1.99,US,1595894561
267,Tual,-5.67,132.75,79.11,80,100,21.61,ID,1595894561
268,Nova Granada,-20.53,-49.31,77.0,36,0,7.18,BR,1595894561
269,Rio Grande,-32.03,-52.1,53.01,94,100,5.53,BR,1595894483
270,Keetmanshoop,-26.58,18.13,59.0,30,0,10.29,NA,1595894562
271,Coahuayana Viejo,18.73,-103.68,82.4,69,40,13.87,MX,1595894562
272,Aksu,41.12,80.26,72.43,41,6,0.85,CN,1595894562
273,Mananjary,-21.22,48.33,64.09,92,59,6.13,MG,1595894562
274,Lavrentiya,65.58,-171.0,49.06,80,52,14.9,RU,1595894562
275,Ville-Marie,47.33,-79.43,69.8,88,90,4.7,CA,1595894562
276,Carutapera,-1.2,-46.02,76.64,84,2,6.62,BR,1595894563
277,Marawi,8.0,124.29,77.0,87,98,7.0,PH,1595894563
278,Eenhana,-17.47,16.33,56.19,37,0,9.15,NA,1595894563
279,Colombia,20.99,-77.43,84.2,79,1,14.99,CU,1595894563
280,Contamana,-7.33,-75.02,78.24,70,33,2.37,PE,1595894563
281,Baculin,7.45,126.58,83.93,61,100,0.98,PH,1595894564
282,Jalu,29.03,21.55,78.44,48,0,14.43,LY,1595894564
283,Arrondissement de Mont-de-Marsan,44.0,-0.67,69.01,88,4,2.24,FR,1595894564
284,Havelock,34.88,-76.9,84.99,75,13,5.01,US,1595894557
285,Abnūb,27.27,31.15,78.8,39,0,8.05,EG,1595894564
286,Vanavara,60.34,102.28,59.0,95,89,2.26,RU,1595894564
287,Sindou,10.67,-5.17,73.08,93,99,3.67,BF,1595894564
288,Saint Anthony,45.02,-93.22,82.4,42,1,12.75,US,1595894565
289,Sharjah city,25.36,55.4,96.8,59,27,1.12,AE,1595894406
290,Kangaatsiaq,68.31,-53.46,43.32,92,100,4.03,GL,1595894565
291,Artigas,-30.4,-56.47,54.54,74,96,7.92,UY,1595894565
292,Meulaboh,4.14,96.13,74.05,96,100,3.24,ID,1595894432
293,Wanaka,-44.7,169.15,37.0,84,100,3.0,NZ,1595894364
294,Sun City,33.6,-112.27,111.0,14,40,6.93,US,1595894566
295,Nagato,34.38,131.2,82.4,94,75,11.41,JP,1595894566
296,Oleśnica,51.21,17.39,66.99,77,98,5.82,PL,1595894330
297,Constantine,36.37,6.61,80.6,30,0,2.24,DZ,1595894566
298,Catuday,16.29,119.81,83.84,71,92,5.37,PH,1595894566
299,Asilah,35.47,-6.03,77.0,83,0,8.05,MA,1595894567
300,Cockburn Town,21.46,-71.14,82.27,77,2,18.39,TC,1595894567
301,Sciacca,37.51,13.09,75.0,52,0,4.27,IT,1595894567
302,Prince Rupert,54.32,-130.32,59.0,82,1,6.93,CA,1595894439
303,Indramayu,-6.33,108.32,75.87,74,100,7.49,ID,1595894567
304,Kutum,14.2,24.67,71.73,76,67,16.11,SD,1595894568
305,La Ronge,55.1,-105.28,78.8,39,20,8.05,CA,1595894568
306,Zyryanka,65.75,150.85,69.39,62,81,13.2,RU,1595894568
307,Kahului,20.89,-156.47,89.6,49,20,27.51,US,1595894367
308,Ucluelet,48.93,-125.55,73.4,60,20,10.29,CA,1595894313
309,Howard Springs,-12.5,131.05,75.0,25,72,10.29,AU,1595894569
310,Grão Mogol,-16.56,-42.89,58.69,76,2,4.68,BR,1595894569
311,Stornoway,58.21,-6.39,52.0,93,100,21.92,GB,1595894569
312,Balintore,57.76,-3.91,54.0,100,100,8.05,GB,1595894569
313,Tautira,-17.73,-149.15,82.4,74,40,9.17,PF,1595894569
314,Nagua,19.38,-69.85,82.4,88,40,13.87,DO,1595894569
315,Tigil',57.8,158.67,66.67,55,1,11.18,RU,1595894570
316,Nanortalik,60.14,-45.24,46.45,95,100,6.53,GL,1595894570
317,Mergen,49.18,125.22,81.73,55,0,7.47,CN,1595894570
318,Podgornoye,51.73,39.15,62.6,55,2,4.47,RU,1595894570
319,Villamontes,-21.25,-63.5,70.74,34,0,4.09,BO,1595894570
320,Krasnovka,48.82,40.09,71.29,37,97,11.16,RU,1595894570
321,Sakaiminato,35.55,133.23,78.8,88,90,3.36,JP,1595894571
322,Wellington,-41.29,174.78,55.4,62,77,18.34,NZ,1595894310
323,Seybaplaya,19.65,-90.67,93.2,49,75,11.41,MX,1595894571
324,Kiryat Gat,31.61,34.76,81.0,89,39,1.99,IL,1595894403
325,Arnedo,42.22,-2.1,75.2,77,29,5.82,ES,1595894571
326,Richards Bay,-28.78,32.04,60.08,77,73,4.45,ZA,1595894571
327,Wajir,1.75,40.06,73.56,73,44,16.87,KE,1595894571
328,Matagami,49.75,-77.63,66.2,93,90,5.59,CA,1595894571
329,Devils Lake,48.11,-98.87,78.8,44,1,14.99,US,1595894572
330,New Smyrna Beach,29.03,-80.93,75.2,100,75,5.82,US,1595894572
331,Mnogovershinnyy,53.94,139.92,70.47,59,40,4.29,RU,1595894572
332,Maumere,-8.62,122.21,76.77,70,81,8.52,ID,1595894572
333,Mahibadhoo,3.78,72.97,81.88,78,91,10.83,MV,1595894572
334,Dubti,11.74,41.09,82.76,55,100,17.45,ET,1595894572
335,Barlinek,52.99,15.22,64.99,80,100,7.18,PL,1595894573
336,Bilma,18.69,12.92,89.92,42,94,9.1,NE,1595894573
337,Kieta,-6.22,155.63,84.42,66,93,3.53,PG,1595894573
338,Imeni Karla Libknekhta,51.62,35.48,62.06,74,26,8.12,RU,1595894573
339,Chapais,49.78,-74.85,68.0,88,90,10.29,CA,1595894561
340,Aklavik,68.22,-135.01,69.8,46,75,13.87,CA,1595894573
341,Los Pozos,8.45,-62.73,81.0,82,95,1.99,VE,1595894574
342,Lüderitz,-26.65,15.16,57.2,87,0,2.24,NA,1595894574
343,Pokaran,26.92,71.92,88.0,63,8,16.71,IN,1595894574
344,Saint George,37.1,-113.58,102.2,13,1,13.87,US,1595894509
345,Vágur,61.47,-6.81,49.86,88,89,16.93,FO,1595894574
346,Khovd,48.01,91.64,59.77,69,100,3.11,MN,1595894575
347,Warmbad,-28.45,18.73,60.67,31,0,13.51,NA,1595894575
348,Burnie,-41.07,145.92,51.01,51,0,1.99,AU,1595894575
349,Mossamedes,-15.2,12.15,66.33,65,0,3.13,AO,1595894575
350,Nantong,32.03,120.87,81.0,93,100,5.41,CN,1595894575
351,Vardø,70.37,31.11,55.4,87,0,5.82,NO,1595894575
352,Kazanskaya,45.41,40.44,68.05,82,28,4.09,RU,1595894576
353,Maragogi,-9.01,-35.22,74.3,79,90,11.68,BR,1595894576
354,Meadow Lake,34.8,-106.54,84.99,42,40,4.7,US,1595894527
355,Lucea,18.45,-78.17,86.0,79,20,6.93,JM,1595894576
356,Manzhouli,49.6,117.43,72.48,64,77,15.97,CN,1595894576
357,Obihiro,42.92,143.2,59.0,93,75,3.36,JP,1595894576
358,Neyvo-Shaytanskiy,57.73,61.25,49.28,83,7,3.85,RU,1595894577
359,Wawa,9.9,4.42,72.43,89,94,4.45,NG,1595894577
360,Zapolyarnyy,69.42,30.81,59.0,82,0,5.82,RU,1595894577
361,Belmonte,-15.86,-38.88,71.6,78,20,2.24,BR,1595894577
362,Vila Franca do Campo,37.72,-25.43,71.6,88,20,4.7,PT,1595894577
363,Vuktyl,63.86,57.31,54.16,86,24,4.21,RU,1595894577
364,Santa María del Oro,25.93,-105.37,72.09,64,89,12.55,MX,1595894578
365,São Joaquim,-28.29,-49.93,50.22,99,46,2.77,BR,1595894578
366,New Ulm,44.31,-94.46,80.6,44,1,9.17,US,1595894578
367,Tankhoy,51.55,105.13,59.07,82,82,5.66,RU,1595894578
368,Ostrovnoy,68.05,39.51,53.56,89,0,1.16,RU,1595894578
369,Tsabong,-26.02,22.4,49.59,42,0,13.11,BW,1595894578
370,Avera,33.19,-82.53,91.4,59,40,5.82,US,1595894579
371,Mahon,39.89,4.27,75.2,88,0,3.36,ES,1595894579
372,Nadym,65.53,72.52,47.32,72,86,14.29,RU,1595894400
373,Atar,20.52,-13.05,93.24,36,46,8.75,MR,1595894579
374,Porbandar,21.64,69.61,83.8,79,51,13.85,IN,1595894579
375,Nyagan,62.14,65.39,47.14,75,59,3.76,RU,1595894579
376,Padang,-0.95,100.35,77.0,94,90,5.82,ID,1595894579
377,Fuzhou,26.06,119.31,82.4,88,100,2.24,CN,1595894432
378,Okato,-39.2,173.88,54.0,67,77,8.01,NZ,1595894580
379,Barra de Tecoanapa,16.52,-98.75,82.35,81,100,8.32,MX,1595894580
380,Laas,46.62,10.7,60.8,93,5,3.36,IT,1595894580
381,Largo,27.91,-82.79,87.8,66,40,10.29,US,1595894580
382,Ruteng,-8.61,120.47,63.07,86,41,3.6,ID,1595894580
383,Susanville,40.42,-120.65,80.6,24,1,17.22,US,1595894576
384,Neuquén,-38.95,-68.06,44.6,81,0,5.82,AR,1595894361
385,Qui Nhon,13.77,109.23,82.45,73,63,4.16,VN,1595894516
386,Neijiang,29.58,105.06,77.68,81,1,0.89,CN,1595894581
387,Jiayuguan City,39.82,98.3,75.67,18,0,3.91,CN,1595894581
388,Leh,34.17,77.58,59.31,44,15,5.37,IN,1595894582
389,Cururupu,-1.83,-44.87,74.23,89,48,3.13,BR,1595894582
390,Monte Alegre,-2.01,-54.07,80.91,61,0,4.0,BR,1595894582
391,Verāval,20.9,70.37,83.32,80,76,11.14,IN,1595894582
392,Garoowe,8.41,48.48,78.24,61,23,22.59,SO,1595894582
393,Arsen'yev,44.16,133.27,75.24,68,47,2.39,RU,1595894582
394,Gijang,35.24,129.21,75.2,88,90,2.24,KR,1595894583
395,Sørland,67.67,12.69,54.32,95,59,2.48,NO,1595894583
396,Umluj,25.02,37.27,83.98,80,8,3.89,SA,1595894583
397,Toora-Khem,52.47,96.11,53.87,70,58,1.1,RU,1595894583
398,Guaymas,27.93,-110.9,96.01,59,40,16.11,MX,1595894583
399,Sarakhs,36.54,61.16,78.8,34,0,2.24,IR,1595894583
400,Riyadh,24.69,46.72,89.6,29,52,8.16,SA,1595894446
401,Raudeberg,61.99,5.14,60.01,93,100,4.7,NO,1595894584
402,Iralaya,15.0,-83.23,78.8,94,75,9.17,HN,1595894584
403,Pedersore,63.65,22.68,62.01,100,99,1.12,FI,1595894584
404,Merritt Island,28.54,-80.67,77.0,94,20,5.82,US,1595894584
405,The Valley,18.22,-63.06,84.2,79,40,10.29,AI,1595894530
406,Dzerzhinsk,56.24,43.46,61.0,100,0,1.48,RU,1595894584
407,Verkhoyansk,67.54,133.38,53.94,71,94,7.25,RU,1595894585
408,Juan Aldama,24.29,-103.39,63.39,84,100,4.03,MX,1595894585
409,Çeşme,38.32,26.31,80.6,54,0,10.29,TR,1595894585
410,Pervomayskoye,43.92,46.71,70.18,66,23,5.99,RU,1595894585
411,Aripuanã,-9.17,-60.63,78.76,47,69,1.1,BR,1595894585
412,Ulan-Ude,51.83,107.61,64.4,88,40,4.47,RU,1595894585
413,Quelimane,-17.88,36.89,64.4,93,20,3.44,MZ,1595894585
414,Ambikāpur,23.12,83.2,78.26,75,100,3.78,IN,1595894586
415,Kandrian,-6.22,149.55,82.11,79,18,6.22,PG,1595894586
416,Champerico,14.3,-91.92,77.0,94,90,4.7,GT,1595894402
417,Porto-Novo,6.5,2.6,77.0,88,20,10.29,BJ,1595894586
418,Deputatsky,69.3,139.9,45.77,72,100,4.68,RU,1595894586
419,Anchorage,61.22,-149.9,68.0,63,1,6.93,US,1595894402
420,Vao,-22.67,167.48,71.42,82,92,22.21,NC,1595894587
421,Hasaki,35.73,140.83,84.0,83,75,9.17,JP,1595894587
422,Henties Bay,-22.12,14.28,59.0,81,0,3.8,NA,1595894587
423,Kungurtug,50.6,97.52,56.73,57,63,1.34,RU,1595894587
424,Mt. Pleasant,32.79,-79.86,87.01,70,1,9.17,US,1595894469
425,Zheleznodorozhnyy,55.75,38.0,66.0,93,0,3.22,RU,1595894588
426,Pringsewu,-5.36,104.97,71.65,80,95,1.63,ID,1595894588
427,Oxelösund,58.67,17.1,59.0,100,78,5.82,SE,1595894588
428,Namatanai,-3.67,152.43,85.06,66,2,5.64,PG,1595894588
429,Alta Floresta,-9.88,-56.09,78.8,54,0,1.12,BR,1595894407
430,Kununurra,-15.77,128.73,69.8,23,0,8.05,AU,1595894588
431,Port Keats,-14.25,129.55,73.29,23,36,16.49,AU,1595894588
432,Khanbari,27.37,87.2,74.41,76,100,0.85,NP,1595894589
433,Minot,48.23,-101.3,78.8,36,1,12.75,US,1595894537
434,Guánica,17.97,-66.91,84.99,78,67,2.48,PR,1595894589
435,Tierralta,8.17,-76.06,77.77,89,77,4.05,CO,1595894589
436,Pontian Kecil,1.48,103.39,75.99,94,20,6.6,MY,1595894589
437,Souillac,-20.52,57.52,66.2,88,40,2.24,MU,1595894590
438,Cartagena,10.4,-75.51,84.2,83,75,6.93,CO,1595894407
439,Boende,-0.22,20.87,72.1,87,12,1.34,CD,1595894590
440,Peterhead,57.51,-1.8,53.01,93,100,13.87,GB,1595894590
441,Turan,16.07,108.22,80.6,78,20,3.36,VN,1595894590
442,Seddon,-37.81,144.89,55.0,87,90,10.29,AU,1595894591
443,Santiago,-33.46,-70.65,51.8,57,15,4.7,CL,1595894546
444,Jérémie,18.65,-74.12,82.22,73,77,1.57,HT,1595894591
445,Arlit,18.74,7.39,94.14,38,70,13.38,NE,1595894591
446,Douglas,41.3,-96.17,87.8,45,1,4.7,US,1595894293
447,Moroni,-11.7,43.26,71.37,79,92,16.13,KM,1595894585
448,Boa Vista,2.82,-60.67,84.2,66,88,2.91,BR,1595894591
449,Mwanza,-2.52,32.9,68.0,56,0,8.05,TZ,1595894302
450,Cabo San Lucas,22.89,-109.91,93.2,55,75,10.29,MX,1595894592
451,Seoul,37.57,126.98,77.0,78,90,3.42,KR,1595894298
452,Sosnovo-Ozerskoye,52.52,111.54,57.74,96,100,5.7,RU,1595894592
453,Sotik Post,-0.78,35.34,55.08,94,95,5.28,KE,1595894592
454,Vila Velha,-20.33,-40.29,75.99,78,0,4.7,BR,1595894593
455,Lázaro Cárdenas,17.96,-102.2,84.56,69,88,4.88,MX,1595894402
456,Port Lincoln,-34.73,135.87,51.28,72,100,10.02,AU,1595894593
457,Valleyview,55.07,-117.29,85.26,50,11,6.38,CA,1595894593
458,Bogandé,12.97,-0.14,82.54,68,68,10.22,BF,1595894593
459,Cidreira,-30.18,-50.21,60.91,97,99,1.61,BR,1595894593
460,Siteki,-26.45,31.95,51.8,93,72,4.7,SZ,1595894593
461,Salta,-24.79,-65.41,57.2,35,0,8.05,AR,1595894427
462,Vangaindrano,-23.35,47.6,60.35,85,6,5.46,MG,1595894594
463,Solnechnyy,50.72,136.63,76.33,61,30,2.75,RU,1595894594
464,Klyuchi,52.27,79.17,61.52,81,82,8.03,RU,1595894594
465,Alto Araguaia,-17.31,-53.22,68.76,38,5,4.83,BR,1595894502
466,Diego de Almagro,-26.37,-70.05,50.74,64,0,0.51,CL,1595894595
467,Isangel,-19.55,169.27,78.8,78,40,10.29,VU,1595894595
468,Sohbatpur,28.52,68.54,93.99,47,2,7.07,PK,1595894485
469,Belaya Gora,68.53,146.42,54.79,51,81,8.77,RU,1595894595
470,Cerro de Pasco,-10.68,-76.27,36.84,88,77,4.7,PE,1595894595
471,Mbandaka,0.05,18.26,70.65,89,36,1.59,CD,1595894595
472,Tarboro,35.9,-77.54,93.2,52,1,5.82,US,1595894595
473,Pitimbu,-7.47,-34.81,73.4,94,75,11.41,BR,1595894596
474,Ishigaki,24.34,124.16,84.2,89,75,4.7,JP,1595894596
475,Somanda,-3.37,33.95,61.97,64,4,7.56,TZ,1595894596
476,Plettenberg Bay,-34.05,23.37,57.2,49,0,3.98,ZA,1595894596
477,Romny,50.75,33.47,63.86,85,47,5.7,UA,1595894596
478,Kuala Lipis,4.18,102.05,72.7,95,77,0.34,MY,1595894596
479,Banda Aceh,5.56,95.32,77.79,86,100,14.79,ID,1595894561
480,Bairiki Village,1.33,172.98,87.8,70,75,11.41,KI,1595894597
481,Vostok,46.49,135.88,75.61,66,0,2.53,RU,1595894597
482,Teya,60.38,92.63,57.78,72,94,1.25,RU,1595894597
483,Chipinge,-20.19,32.62,47.62,97,31,4.76,ZW,1595894597
484,Beregovoy,55.17,73.22,57.2,71,0,2.24,RU,1595894597
485,Jardim,-21.48,-56.14,71.89,45,0,2.71,BR,1595894597
486,Walvis Bay,-22.96,14.51,59.0,81,0,6.98,NA,1595894597
487,Mayumba,-3.43,10.66,72.34,83,35,6.87,GA,1595894598
488,Gravdal,68.12,13.5,53.98,92,44,1.9,NO,1595894598
489,Northwich,53.26,-2.51,57.0,82,35,11.41,GB,1595894598
490,Kamaishi,39.27,141.88,68.0,100,75,2.24,JP,1595894598
491,Bongandanga,1.5,21.05,70.45,93,32,0.27,CD,1595894598
492,Camapuã,-19.53,-54.04,72.23,32,87,0.81,BR,1595894598
493,Harrismith,-28.27,29.13,36.41,85,0,4.63,ZA,1595894598
494,Chicama,-7.84,-79.15,61.27,80,27,5.32,PE,1595894598
495,Rabo de Peixe,37.8,-25.58,71.6,88,20,4.7,PT,1595894599
496,Vanderhoof,54.02,-124.02,85.24,26,82,6.04,CA,1595894429
497,Griffith,41.53,-87.42,82.99,65,40,6.93,US,1595894599
498,Oleksandrivka,46.84,32.76,66.99,71,99,10.4,UA,1595894599
499,Ustroń,49.72,18.8,59.0,78,48,14.0,PL,1595894365
500,Verkhnevilyuysk,63.45,120.32,55.99,62,100,7.07,RU,1595894599
501,Yorosso,12.35,-4.78,75.54,86,57,5.53,ML,1595894600
502,Oneonta,42.45,-75.06,84.0,69,32,7.94,US,1595894600
503,Union,40.63,-74.27,91.99,43,1,11.97,US,1595894600
504,College,64.86,-147.8,59.0,87,90,5.82,US,1595894600
505,Mackay,-21.15,149.2,68.0,67,0,10.29,AU,1595894422
506,Butte,39.65,-121.57,102.0,19,1,9.17,US,1595894600
507,Kozluk,38.19,41.49,86.0,40,75,5.82,TR,1595894600
508,Hearst,49.68,-83.67,68.23,71,52,6.93,CA,1595894601
509,Ondjiva,-17.07,15.73,53.35,42,0,5.7,AO,1595894601
510,Yago,21.83,-105.07,73.4,83,90,4.7,MX,1595894601
511,Asău,46.43,26.4,59.0,89,57,4.76,RO,1595894601
512,George Town,5.41,100.34,80.6,94,20,1.12,MY,1595894476
513,Tocopilla,-22.09,-70.2,59.09,61,15,4.76,CL,1595894602
514,Mehamn,71.04,27.85,60.1,70,0,9.57,NO,1595894602
515,Egvekinot,66.32,-179.17,51.87,72,76,6.69,RU,1595894602
516,Takaka,-40.85,172.8,52.0,78,93,1.99,NZ,1595894602
517,Emba,48.83,58.14,61.12,74,0,11.05,KZ,1595894602
518,Tabuating,15.39,120.94,82.89,76,91,1.68,PH,1595894602
519,Xining,36.62,101.77,57.85,67,50,2.66,CN,1595894602
520,Sitka,57.05,-135.33,57.2,82,75,4.7,US,1595894603
521,Naze,28.37,129.48,86.0,84,40,11.41,JP,1595894603
522,Yeppoon,-23.13,150.73,66.2,39,0,5.82,AU,1595894603
523,Zhigansk,66.77,123.37,50.29,75,80,14.54,RU,1595894603
524,Saint-Michel-des-Saints,46.68,-73.92,73.99,9,31,1.01,CA,1595894603
525,Shahr-e Kord,32.33,50.86,69.53,34,46,0.72,IR,1595894603
526,Los Angeles,34.05,-118.24,87.01,56,1,9.93,US,1595894314
527,Macao,22.2,113.55,86.0,89,20,4.7,MO,1595894408
528,Haradok,55.46,29.98,61.93,95,94,5.93,BY,1595894604
529,Kaeo,-35.1,173.78,61.0,3,97,10.0,NZ,1595894604
530,Mount Gambier,-37.83,140.77,37.4,100,49,4.7,AU,1595894604
531,Phang Nga,8.45,98.53,75.2,100,20,2.24,TH,1595894605
532,Alhandra,-7.44,-34.91,73.4,94,75,11.41,BR,1595894605
533,Taoudenni,22.68,-3.98,96.55,9,0,7.87,ML,1595894605
534,Shimoda,34.67,138.95,78.8,94,75,16.11,JP,1595894605
535,Talara,-4.58,-81.27,63.57,85,2,15.84,PE,1595894605
536,Cooma,-36.23,149.13,46.4,100,90,23.04,AU,1595894433
537,Angoche,-16.23,39.91,70.25,80,9,10.94,MZ,1595894605
538,Kilkenny,52.65,-7.25,55.0,81,11,5.99,IE,1595894606
539,Sheltozero,61.37,35.37,62.56,80,67,1.88,RU,1595894606
540,Neya,58.3,43.87,56.23,93,1,2.57,RU,1595894606
541,Cherdyn',60.4,56.48,55.18,91,54,2.55,RU,1595894606
542,Samarai,-10.62,150.67,79.77,88,94,10.45,PG,1595894606
543,Teknāf,20.86,92.31,81.64,86,100,4.12,BD,1595894607
544,Jinka,5.65,36.65,63.48,87,85,0.43,ET,1595894607
545,Sorong,-0.88,131.25,79.59,84,100,15.23,ID,1595894607
546,Roald,62.58,6.13,60.01,87,100,8.05,NO,1595894607
547,Nicoya,10.15,-85.45,80.6,88,75,2.24,CR,1595894407
548,Black River,18.03,-77.85,86.0,79,20,6.93,JM,1595894607
549,Fort Payne,34.44,-85.72,77.0,78,40,3.36,US,1595894607
550,Honningsvåg,70.98,25.97,59.86,69,0,14.03,NO,1595894608
551,Volgodonsk,47.51,42.15,72.43,32,65,10.58,RU,1595894608
552,Georgiyevka,43.04,74.71,69.8,46,65,11.18,KZ,1595894608
553,Caravelas,-17.71,-39.25,69.96,78,9,5.3,BR,1595894608
554,Mana,5.66,-53.78,78.53,83,42,4.45,GF,1595894608
555,Cayenne,4.93,-52.33,77.0,100,32,5.84,GF,1595894526
556,Brza Palanka,44.47,22.44,64.76,79,0,5.01,RS,1595894608
557,Russell,32.35,-85.2,91.4,59,1,4.41,US,1595894439
558,Council Bluffs,41.26,-95.86,84.99,42,1,3.36,US,1595894584
559,Saint-Joseph,-21.37,55.62,69.8,83,97,5.82,RE,1595894609
560,Guaíra,-20.32,-48.31,73.9,50,38,8.46,BR,1595894526
561,Pizarro,4.95,-77.37,78.21,89,96,9.26,CO,1595894609
562,Pandan,14.05,124.17,84.02,76,100,1.28,PH,1595894609
563,Nemuro,43.32,145.57,59.0,93,75,4.7,JP,1595894610
564,Bartica,6.4,-58.62,84.2,79,20,4.7,GY,1595894610
565,Manoel Urbano,-8.84,-69.26,76.55,61,22,0.63,BR,1595894610
